ID,Institution Name,CITY,STABBR,Latitude,Longitude
100654,Alabama A & M University,Normal,AL,34.7838951,-86.5684231
100663,University of Alabama at Birmingham,Birmingham,AL,33.5016153,-86.8060476
100690,Amridge University,Montgomery,AL,32.3626668,-86.1740183
100706,University of Alabama in Huntsville,Huntsville,AL,34.7249108,-86.640491
100724,Alabama State University,Montgomery,AL,32.3634508,-86.2935823
100751,The University of Alabama,Tuscaloosa,AL,33.2099791,-87.5172209
100760,Central Alabama Community College,Alexander City,AL,32.9243416,-85.9455957
100812,Athens State University,Athens,AL,34.8060684,-86.9651364
100830,Auburn University at Montgomery,Montgomery,AL,32.3709721,-86.1771873
100858,Auburn University,Auburn,AL,32.5919528,-85.4959775
100937,Birmingham-Southern College,Birmingham,AL,33.5161855,-86.855847
101028,Chattahoochee Valley Community College,Phenix City,AL,32.4237871,-85.0307291
101116,South University-Montgomery,Montgomery,AL,32.3427305,-86.2163432
101143,Enterprise State Community College,Enterprise,AL,31.2981182,-85.8371311
101161,Coastal Alabama Community College,Bay Minette,AL,30.8515748,-87.7791586
101189,Faulkner University,Montgomery,AL,32.3854781,-86.2171061
101240,Gadsden State Community College,Gadsden,AL,33.9902905,-85.9938681
101277,New Beginning College of Cosmetology,Albertville,AL,31.220634,-86.172054
101286,George C Wallace Community College-Dothan,Dothan,AL,31.3175843,-85.4657393
101295,George C Wallace State Community College-Hanceville,Hanceville,AL,34.0730996,-86.7851529
101301,George C Wallace State Community College-Selma,Selma,AL,32.439709,-87.014532
101365,Herzing University-Birmingham,Birmingham,AL,33.554206,-86.752758
101435,Huntingdon College,Montgomery,AL,32.3509723,-86.2852461
101453,Heritage Christian University,Florence,AL,34.8556231,-87.6634238
101462,J. F. Drake State Community and Technical College,Huntsville,AL,34.742692,-86.584407
101471,J F Ingram State Technical College,Deatsville,AL,32.560632,-86.368309
101480,Jacksonville State University,Jacksonville,AL,33.8249359,-85.7641095
101505,Jefferson State Community College,Birmingham,AL,33.6567289,-86.7077432
101514,John C Calhoun State Community College,Tanner,AL,34.6508577,-86.9489086
101569,Lawson State Community College,Birmingham,AL,33.598555,-86.708897
101587,University of West Alabama,Livingston,AL,32.594031,-88.188648
101602,Lurleen B Wallace Community College,Andalusia,AL,31.3233648,-86.4511785
101648,Marion Military Institute,Marion,AL,32.6193588,-87.3235049
101675,Miles College,Fairfield,AL,33.4810986,-86.9091102
101693,University of Mobile,Mobile,AL,30.7919746,-88.1312415
101709,University of Montevallo,Montevallo,AL,33.1060774,-86.8652375
101736,Northwest-Shoals Community College,Muscle Shoals,AL,34.7397978,-87.677636
101879,University of North Alabama,Florence,AL,34.8075226,-87.6816129
101897,Northeast Alabama Community College,Rainsville,AL,34.5459194,-85.9096966
101912,Oakwood University,Huntsville,AL,34.7546676,-86.6549303
101994,Reid State Technical College,Evergreen,AL,31.4628231,-86.9643444
102030,Bishop State Community College,Mobile,AL,30.6947174,-88.0575253
102049,Samford University,Birmingham,AL,33.554206,-86.752758
102058,Selma University,Selma,AL,32.4206437,-87.0338257
102067,Shelton State Community College,Tuscaloosa,AL,33.1206471,-87.5613494
102076,Snead State Community College,Boaz,AL,34.2006503,-86.1691433
102094,University of South Alabama,Mobile,AL,30.6507639,-88.161593
102234,Spring Hill College,Mobile,AL,30.6920656,-88.135704
102270,Stillman College,Tuscaloosa,AL,33.1978474,-87.5857279
102298,Talladega College,Talladega,AL,33.4325135,-86.1148878
102313,H Councill Trenholm State Community College,Montgomery,AL,32.367272,-86.345083
102368,Troy University,Troy,AL,31.8022234,-85.9556867
102377,Tuskegee University,Tuskegee,AL,32.4301095,-85.7067335
102395,United States Sports Academy,Daphne,AL,30.639207,-87.9116219
102429,Bevill State Community College,Jasper,AL,33.8369363,-87.2661641
102553,University of Alaska Anchorage,Anchorage,AK,61.190379,-149.8223254
102580,Alaska Bible College,Palmer,AK,61.5984652,-149.11164
102614,University of Alaska Fairbanks,Fairbanks,AK,64.8653408,-147.8426097
102632,University of Alaska Southeast,Juneau,AK,58.3923365,-134.6478123
102669,Alaska Pacific University,Anchorage,AK,61.1915341,-149.80079
102711,Alaska Vocational Technical Center,Seward,AK,60.1074782,-149.441286
102845,Charter College,Vancouver,WA,45.822369,-122.553144
103501,Alaska Career College,Anchorage,AK,61.222366,-149.746645
103741,Empire Beauty School-Tucson,Tucson,AZ,32.2356515,-110.9275295
103893,Carrington College-Phoenix North,Phoenix,AZ,33.44838,-112.07404
103909,Carrington College-Mesa,Mesa,AZ,33.3926966,-111.8540764
103927,Carrington College-Tucson,Tucson,AZ,32.217975,-110.970869
103954,Arizona Academy of Beauty,Tucson,AZ,32.180482,-110.87095
103963,Miller-Motte College-Arizona Automotive Institute,Glendale,AZ,33.531753,-112.177935
104090,Brookline College-Phoenix,Phoenix,AZ,33.44838,-112.07404
104151,Arizona State University Campus Immersion,Tempe,AZ,33.421946,-111.939988
104160,Arizona Western College,Yuma,AZ,32.6888368,-114.4965474
104179,University of Arizona,Tucson,AZ,32.2356398,-110.9517441
104346,Central Arizona College,Coolidge,AZ,32.957749,-111.6522179
104391,Charles of Italy Beauty College,Lake Havasu City,AZ,34.510716,-114.33771
104425,Cochise County Community College District,Sierra Vista,AZ,31.558042,-110.284264
104443,Empire Beauty School-Chandler,Chandler,AZ,33.3475069,-111.8603562
104568,Avalon Institute-Mesa,Mesa,AZ,33.417004,-111.693187
104577,Eastern Arizona College,Thatcher,AZ,32.8455678,-109.7620438
104586,Embry-Riddle Aeronautical University-Prescott,Prescott,AZ,34.6483681,-112.4204169
104665,The School of Architecture,Paradise Valley,AZ,31.896058,-109.81787
104708,Glendale Community College,Glendale,AZ,33.5709727,-112.1906237
104717,Grand Canyon University,Phoenix,AZ,33.5131315,-112.1297514
105145,GateWay Community College,Phoenix,AZ,33.449924,-111.9976567
105154,Mesa Community College,Mesa,AZ,33.389666,-111.8702054
105206,Mohave Community College,Kingman,AZ,35.2149077,-114.0379663
105215,Universal Technical Institute of Arizona Inc-Motorcycle Mechanics Institute Division,Avondale,AZ,32.707475,-114.61603
105297,Dine College,Tsaile,AZ,36.2956387,-109.2177934
105330,Northern Arizona University,Flagstaff,AZ,35.1834428,-111.6550004
105349,Northland Pioneer College,Holbrook,AZ,34.9301705,-110.1419257
105428,Phoenix College,Phoenix,AZ,33.4823521,-112.0891862
105525,Pima Community College,Tucson,AZ,32.2301165,-111.0160349
105534,Pima Medical Institute-Tucson,Tucson,AZ,32.2483003,-110.8783455
105543,Pima Medical Institute-Albuquerque,Albuquerque,NM,35.156855,-106.716458
105589,Prescott College,Prescott,AZ,34.5448939,-112.4774982
105659,Refrigeration School Inc,Phoenix,AZ,33.44838,-112.07404
105668,Rio Salado College,Tempe,AZ,33.4126691,-111.9735914
105677,Roberto-Venn School of Luthiery,Phoenix,AZ,33.454934,-112.0862392
105747,Scottsdale Community College,Scottsdale,AZ,33.5119416,-111.8827068
105792,South Mountain Community College,Phoenix,AZ,33.3819347,-112.0340735
105899,Arizona Christian University,Glendale,AZ,33.6226133,-112.1826058
106041,Universal Technical Institute of Arizona Inc,Avondale,AZ,32.707301,-114.616046
106148,Yavapai College,Prescott,AZ,34.5472599,-112.4549
106245,University of Arkansas at Little Rock,Little Rock,AR,34.7228834,-92.3400535
106263,University of Arkansas for Medical Sciences,Little Rock,AR,34.748041,-92.3223213
106306,Arkansas Baptist College,Little Rock,AR,34.7349723,-92.2898356
106315,Arkansas Beauty School-Little Rock,Little Rock,AR,34.771483,-92.396356
106324,Arkansas Beauty College,Russellville,AR,35.2789868,-93.1352525
106342,Lyon College,Batesville,AR,35.7764261,-91.6242394
106351,Arkansas Technical School,North Little Rock,AR,33.609497,-91.207419
106360,Arthur's Beauty College,Fort Smith,AR,35.380222,-94.372338
106397,University of Arkansas,Fayetteville,AR,36.0970389,-94.1703322
106412,University of Arkansas at Pine Bluff,Pine Bluff,AR,34.2510901,-92.0289102
106449,Arkansas State University-Beebe,Beebe,AR,35.0704813,-91.8951395
106458,Arkansas State University,Jonesboro,AR,35.8436307,-90.6743529
106467,Arkansas Tech University,Russellville,AR,35.2936705,-93.1355358
106485,University of Arkansas at Monticello,Monticello,AR,33.5903872,-91.8131866
106494,Arthur's Beauty College,Jacksonville,AR,33.201498,-91.264488
106546,Baptist Health College Little Rock,Little Rock,AR,34.7131051,-92.4070873
106625,Black River Technical College,Pocahontas,AR,36.2408609,-90.9518351
106704,University of Central Arkansas,Conway,AR,35.077641,-92.4579926
106713,Central Baptist College,Conway,AR,35.0828763,-92.4449192
106795,Cossatot Community College of the University of Arkansas,De Queen,AR,34.038133,-94.364905
106810,Crowley's Ridge College,Paragould,AR,36.065511,-90.586541
106883,East Arkansas Community College,Forrest City,AR,35.0417579,-90.7673336
106908,Paul Mitchell the School-Little Rock,North Little Rock,AR,34.795978,-92.198651
106980,National Park College,Hot Springs,AR,33.610189,-91.197409
106999,University of Arkansas Community College-Batesville,Batesville,AR,35.7933108,-91.6148504
107044,Harding University,Searcy,AR,35.2457778,-91.7263534
107071,Henderson State University,Arkadelphia,AR,34.1307982,-93.0592145
107080,Hendrix College,Conway,AR,35.1008311,-92.4420112
107099,Hot Springs Beauty College,Hot Springs,AR,34.458739,-93.15545
107123,Jefferson Regional School of Nursing,Pine Bluff,AR,34.093466,-91.901822
107141,John Brown University,Siloam Springs,AR,36.190837,-94.5595719
107220,Career Academy of Hair Design,Springdale,AR,36.1676241,-94.1294327
107293,Academy of Salon and Spa,Fort Smith,AR,33.12368,-91.258626
107318,Arkansas State University Mid-South,West Memphis,AR,35.1457312,-90.2229291
107327,Arkansas Northeastern College,Blytheville,AR,35.8984097,-89.9210989
107442,New Tyler Barber College Inc,North Little Rock,AR,33.623341,-91.789595
107460,North Arkansas College,Harrison,AR,36.219519,-93.0893524
107488,Northwest Technical Institute,Springdale,AR,36.1781481,-94.1142366
107512,Ouachita Baptist University,Arkadelphia,AR,34.1307617,-93.0525068
107521,Arkansas State University Three Rivers,Malvern,AR,34.3786856,-92.8219754
107549,Ozarka College,Melbourne,AR,36.0540065,-91.89649
107558,University of the Ozarks,Clarksville,AR,35.4786388,-93.465589
107585,University of Arkansas Community College-Morrilton,Morrilton,AR,35.1726055,-92.7267391
107600,Philander Smith College,Little Rock,AR,34.7380768,-92.2814983
107619,Phillips Community College of the University of Arkansas,Helena,AR,34.523693,-90.586226
107637,Southeast Arkansas College,Pine Bluff,AR,34.211743,-92.0283335
107655,Professional Cosmetology Education Center,El Dorado,AR,33.200018,-92.663567
107664,University of Arkansas-Pulaski Technical College,North Little Rock,AR,34.7830076,-92.298883
107725,University of Arkansas Hope-Texarkana,Hope,AR,33.6412082,-93.5967146
107743,University of Arkansas Community College Rich Mountain,Mena,AR,34.5917265,-94.2203313
107789,Paul Mitchell the School-Arkansas,Fayetteville,AR,36.058087,-94.183826
107831,Searcy Beauty College,Searcy,AR,35.2391156,-91.7351219
107840,Shorter College,N Little Rock,AR,34.7600781,-92.2606804
107877,Williams Baptist University,Walnut Ridge,AR,36.085229,-90.960679
107974,South Arkansas Community College,El Dorado,AR,33.2100437,-92.6672488
107983,Southern Arkansas University Main Campus,Magnolia,AR,33.986128,-91.566358
107992,Southern Arkansas University Tech,Camden,AR,33.6297229,-92.7207898
108065,Velvatex College of Beauty Culture,Little Rock,AR,33.623341,-91.789595
108092,University of Arkansas-Fort Smith,Fort Smith,AR,35.3829856,-94.3741271
108232,Academy of Art University,San Francisco,CA,37.776019,-122.3987087
108269,Academy of Chinese Culture and Health Sciences,Oakland,CA,35.190435,-119.952132
108667,College of Alameda,Alameda,CA,37.7824612,-122.2793979
108807,Allan Hancock College,Santa Maria,CA,34.9432733,-120.4231031
108852,American Academy of Dramatic Arts-Los Angeles,Los Angeles,CA,34.0951606,-118.3437724
108861,Berkeley School of Theology,Berkeley,CA,37.8777264,-122.2585086
108870,American Film Institute Conservatory,Los Angeles,CA,34.1079659,-118.3101169
108977,American Beauty College,West Covina,CA,35.116428,-117.935425
109040,American Career College-Los Angeles,Los Angeles,CA,34.090726,-118.22058
109208,American River College,Sacramento,CA,38.6488437,-121.3465012
109350,Antelope Valley Community College District,Lancaster,CA,34.804128,-118.260852
109651,Art Center College of Design,Pasadena,CA,34.1687402,-118.1851007
109721,Associated Technical College-Los Angeles,Los Angeles,CA,35.116428,-117.935425
109730,Associated Technical College-San Diego,San Diego,CA,32.7206069,-117.158922
109785,Azusa Pacific University,Azusa,CA,34.1331729,-117.9011856
109819,Bakersfield College,Bakersfield,CA,35.4087656,-118.972026
109907,Barstow Community College,Barstow,CA,34.8713836,-117.0256886
109934,Bellus Academy-Chula Vista,Chula Vista,CA,32.669775,-116.980776
110060,Bethesda University,Anaheim,CA,33.8420389,-117.941033
110097,Biola University,La Mirada,CA,33.90686,-118.0152172
110194,Brownson Technical School,Anaheim,CA,33.778622,-117.867292
110219,Bryan University,Tempe,AZ,33.4377333,-111.9449437
110246,Butte College,Oroville,CA,39.650224,-121.6450825
110316,California Institute of Integral Studies,San Francisco,CA,37.7745776,-122.4161974
110334,Cabrillo College,Aptos,CA,36.9900894,-121.9251198
110361,California Baptist University,Riverside,CA,33.9283239,-117.4259206
110370,California College of the Arts,San Francisco,CA,37.767859,-122.4006019
110398,University of California-Hastings College of Law,San Francisco,CA,35.125624,-118.021353
110404,California Institute of Technology,Pasadena,CA,34.1370138,-118.1252883
110413,California Lutheran University,Thousand Oaks,CA,34.2265565,-118.8785217
110422,California Polytechnic State University-San Luis Obispo,San Luis Obispo,CA,35.3074623,-120.6646483
110468,Alliant International University-San Diego,San Diego,CA,32.8975471,-117.0930876
110486,California State University-Bakersfield,Bakersfield,CA,35.3493892,-119.1033969
110495,California State University-Stanislaus,Turlock,CA,37.5255729,-120.8557763
110510,California State University-San Bernardino,San Bernardino,CA,34.1819175,-117.3217439
110529,California State Polytechnic University-Pomona,Pomona,CA,34.0482947,-117.8151013
110538,California State University-Chico,Chico,CA,39.7295013,-121.8481099
110547,California State University-Dominguez Hills,Carson,CA,33.8626143,-118.2573742
110556,California State University-Fresno,Fresno,CA,36.8209963,-119.7372976
110565,California State University-Fullerton,Fullerton,CA,33.8830939,-117.8852152
110574,California State University-East Bay,Hayward,CA,37.6555235,-122.0558772
110583,California State University-Long Beach,Long Beach,CA,33.7817709,-118.1152001
110592,California State University-Los Angeles,Los Angeles,CA,34.0664949,-118.1671415
110608,California State University-Northridge,Northridge,CA,34.2455346,-118.5263221
110617,California State University-Sacramento,Sacramento,CA,38.5599044,-121.4240819
110635,University of California-Berkeley,Berkeley,CA,37.8742565,-122.2387092
110644,University of California-Davis,Davis,CA,38.5337904,-121.7907544
110653,University of California-Irvine,Irvine,CA,33.6429469,-117.8401606
110662,University of California-Los Angeles,Los Angeles,CA,34.0708777,-118.4468507
110671,University of California-Riverside,Riverside,CA,33.9642567,-117.3397858
110680,University of California-San Diego,La Jolla,CA,32.8792438,-117.2311247
110699,University of California-San Francisco,San Francisco,CA,37.7627257,-122.4582568
110705,University of California-Santa Barbara,Santa Barbara,CA,34.4146025,-119.84581
110714,University of California-Santa Cruz,Santa Cruz,CA,37.0001245,-122.0622122
110778,Sofia University,Palo Alto,CA,37.430388,-122.1087022
110875,California Beauty School,Modesto,CA,37.631392,-121.010401
110918,California Christian College,Fresno,CA,36.7672071,-119.7325696
111045,Haven University,Garden Grove,CA,33.773905,-117.941448
111054,California Hair Design Academy,La Mesa,CA,35.125624,-118.021353
111081,California Institute of the Arts,Valencia,CA,34.392317,-118.5666724
111188,California State University Maritime Academy,Vallejo,CA,38.077441,-122.233707
111391,California Western School of Law,San Diego,CA,32.7218151,-117.1624831
111434,Canada College,Redwood City,CA,37.4477761,-122.2651825
111461,College of the Canyons,Santa Clarita,CA,34.4353051,-118.4305718
111513,Career Academy of Beauty,Garden Grove,CA,33.782871,-117.932375
111638,Casa Loma College-Los Angeles,Sherman Oaks,CA,35.114709,-117.984505
111708,CET-San Diego,San Diego,CA,32.574264,-117.075852
111717,CET-San Jose,San Jose,CA,37.274619,-121.890184
111726,CET-El Centro,El Centro,CA,34.698015,-120.4328
111744,CET-Colton,Colton,CA,34.698015,-120.4328
111762,CET-Watsonville,Watsonville,CA,36.915196,-121.834545
111799,CET-Salinas,Salinas,CA,36.725071,-121.655408
111887,Cerritos College,Norwalk,CA,33.8831622,-118.0973395
111896,Cerro Coso Community College,Ridgecrest,CA,35.5671511,-117.6676635
111920,Chabot College,Hayward,CA,37.6426649,-122.1073304
111939,Chaffey College,Rancho Cucamonga,CA,34.1481388,-117.5703738
111948,Chapman University,Orange,CA,33.7933817,-117.8516959
111966,Charles R Drew University of Medicine and Science,Los Angeles,CA,33.9268276,-118.2423499
112075,Concordia University-Irvine,Irvine,CA,33.653933,-117.8109
112084,San Diego Christian College,Spring Valley,CA,32.706142,-117.001898
112127,Church Divinity School of the Pacific,Berkeley,CA,37.8764805,-122.2613201
112172,Citrus College,Glendora,CA,34.134315,-117.8856927
112181,Citrus Heights Beauty College,Citrus Heights,CA,35.116428,-117.935425
112190,City College of San Francisco,San Francisco,CA,37.7259413,-122.450336
112251,Claremont Graduate University,Claremont,CA,34.1103852,-117.7175884
112260,Claremont McKenna College,Claremont,CA,34.0999577,-117.7061792
112288,Milan Institute-Visalia,Visalia,CA,36.2715348,-119.3118797
112367,Clovis Adult Education,Clovis,CA,36.830095,-119.700368
112385,Coastline Community College,Fountain Valley,CA,33.7144461,-117.9303357
112394,University of Silicon Valley,San Jose,CA,37.4140635,-121.9410002
112455,Coba Academy,Anaheim,CA,33.828082,-117.984693
112525,Western University of Health Sciences,Pomona,CA,34.0579419,-117.7452108
112561,Columbia College,Sonora,CA,38.0306349,-120.387323
112570,Columbia College Hollywood,Tarzana,CA,35.116428,-117.935425
112686,Compton College,Compton,CA,33.8776058,-118.2114679
112826,Contra Costa College,San Pablo,CA,37.9694356,-122.3365902
113096,Cosumnes River College,Sacramento,CA,38.4552767,-121.4228781
113111,Crafton Hills College,Yucaipa,CA,34.040827,-117.0979362
113193,Cuesta College,San Luis Obispo,CA,35.3290417,-120.7406204
113218,Cuyamaca College,El Cajon,CA,32.7446616,-116.9407029
113236,Cypress College,Cypress,CA,33.8278065,-118.0240066
113333,De Anza College,Cupertino,CA,37.3177006,-122.0445571
113449,International School of Beauty Inc,Palm Desert,CA,38.095835,-120.871727
113537,Dell'Arte International School of Physical Theatre,Blue Lake,CA,40.8809593,-123.9890154
113573,College of the Desert,Palm Desert,CA,33.7324666,-116.3868288
113582,Design Institute of San Diego,San Diego,CA,32.8802987,-117.1674681
113616,Dharma Realm Buddhist University,Ukiah,CA,39.1334661,-123.1592208
113634,Diablo Valley College,Pleasant Hill,CA,37.9686779,-122.0704218
113698,Dominican University of California,San Rafael,CA,37.9800856,-122.5143069
113704,Dominican School of Philosophy & Theology,Berkeley,CA,37.8811393,-122.2644976
113856,East Los Angeles College,Monterey Park,CA,34.0413172,-118.1504124
113980,El Camino Community College District,Torrance,CA,34.247532,-118.526076
114114,Emperor's College of Traditional Oriental Medicine,Santa Monica,CA,35.116428,-117.935425
114123,Empire College,Santa Rosa,CA,38.4681102,-122.7293805
114266,Evergreen Valley College,San Jose,CA,37.3011208,-121.7637335
114354,FIDM-Fashion Institute of Design & Merchandising,Los Angeles,CA,34.034366,-118.244184
114433,Feather River Community College District,Quincy,CA,39.9500901,-120.968012
114460,Federico Beauty Institute,Sacramento,CA,38.539031,-121.356638
114549,Fielding Graduate University,Santa Barbara,CA,34.4344251,-119.7138033
114585,Five Branches University,Santa Cruz,CA,36.9644918,-121.9981982
114637,Redondo Beach Beauty College,Torrance,CA,33.883575,-118.323845
114716,Foothill College,Los Altos Hills,CA,37.3617114,-122.1282717
114734,Franciscan School of Theology,San Diego,CA,32.762917,-117.152591
114761,Fredrick and Charles Beauty College,Eureka,CA,40.756344,-124.163266
114789,Fresno City College,Fresno,CA,36.7679339,-119.7965914
114813,Fresno Pacific University,Fresno,CA,36.72601,-119.7341901
114840,Fuller Theological Seminary,Pasadena,CA,34.1480627,-118.1403486
114859,Fullerton College,Fullerton,CA,33.8760825,-117.9170885
114938,Gavilan College,Gilroy,CA,36.9720652,-121.5684391
114947,Gemological Institute of America-Carlsbad,Carlsbad,CA,36.257193,-119.894906
115001,Glendale Community College,Glendale,CA,34.16688,-118.2284439
115010,Glendale Career College,Glendale,CA,34.1489573,-118.2553051
115083,Golden Gate University,San Francisco,CA,37.789198,-122.3989456
115126,Golden West College,Huntington Beach,CA,33.7337195,-118.003575
115214,Graduate Theological Union,Berkeley,CA,37.8762,-122.2624308
115296,Grossmont College,El Cajon,CA,32.816248,-117.0054474
115357,Salon Success Academy-Riverside,Riverside,CA,33.942789,-117.352011
115393,Hartnell College,Salinas,CA,36.6745402,-121.6664273
115409,Harvey Mudd College,Claremont,CA,34.1061401,-117.7087281
115658,Hilltop Beauty School,Daly City,CA,37.700893,-122.463593
115728,Holy Names University,Oakland,CA,37.8025664,-122.1869917
115746,Pacifica Graduate Institute,Carpinteria,CA,34.388584,-119.512485
115755,California State Polytechnic University-Humboldt,Arcata,CA,40.8755875,-124.0779998
115773,Humphreys University-Stockton and Modesto Campuses,Stockton,CA,34.869057,-120.406027
115861,Imperial Valley College,Imperial,CA,32.8293195,-115.5055359
115931,Institute for Business and Technology,Santa Clara,CA,35.121387,-117.965336
116226,Interior Designers Institute,Newport Beach,CA,33.671819,-117.95869
116350,International School of Cosmetology,Los Angeles,CA,33.945563,-118.381571
116439,Irvine Valley College,Irvine,CA,33.6746378,-117.779133
116563,Bellus Academy-El Cajon,El Cajon,CA,32.7940673,-116.9462629
116846,American Jewish University,Los Angeles,CA,34.1268924,-118.4722602
117052,Reedley College,Reedley,CA,36.6083486,-119.4604433
117104,Life Pacific University,San Dimas,CA,34.098594,-117.8301054
117140,University of La Verne,La Verne,CA,34.0998636,-117.7726225
117168,Laguna College of Art and Design,Laguna Beach,CA,33.56158,-117.7724752
117195,Lake Tahoe Community College,South Lake Tahoe,CA,38.926757,-119.9701299
117238,Lancaster Beauty School,Lancaster,CA,34.696703,-118.148944
117247,Laney College,Oakland,CA,37.7942491,-122.2607931
117274,Lassen Community College,Susanville,CA,40.4301376,-120.6338875
117283,Latin American Bible Institute,La Puente,CA,34.06028,-117.991608
117520,Life Chiropractic College West,Hayward,CA,37.6381776,-122.1171602
117557,Lincoln University,Oakland,CA,37.8047895,-122.2696675
117575,Southern California Seminary,El Cajon,CA,32.8000211,-116.905643
117627,La Sierra University,Riverside,CA,33.9101505,-117.4957465
117636,Loma Linda University,Loma Linda,CA,34.0514446,-117.2628176
117645,Long Beach City College,Long Beach,CA,33.8287698,-118.1360891
117672,Southern California University of Health Sciences,Whittier,CA,33.9231784,-117.9833211
117690,Los Angeles Harbor College,Wilmington,CA,33.7833511,-118.2842514
117706,Los Angeles Pierce College,Woodland Hills,CA,35.116428,-117.935425
117715,Los Angeles Southwest College,Los Angeles,CA,33.9283374,-118.3057119
117724,Los Angeles Trade Technical College,Los Angeles,CA,34.0312813,-118.2703148
117733,Los Angeles Valley College,Valley Glen,CA,34.1757583,-118.4203406
117751,The Master's University and Seminary,Santa Clarita,CA,37.343859,-121.95233
117788,Los Angeles City College,Los Angeles,CA,34.0863454,-118.2933879
117803,Los Angeles County College of Nursing and Allied Health,Los Angeles,CA,34.0631865,-118.211744
117867,Los Angeles Mission College,Sylmar,CA,34.3148609,-118.4189764
117894,Los Medanos College,Pittsburg,CA,38.0054122,-121.8611075
117946,Loyola Marymount University,Los Angeles,CA,33.9687824,-118.4182021
117955,Lu Ross Academy,Ventura,CA,34.2780535,-119.293915
118134,Lyle's College of Beauty,Bakersfield,CA,35.116428,-117.935425
118143,Lyle's College of  Beauty,Fresno,CA,36.752936,-119.797679
118161,Lytles Redwood Empire Beauty College,Santa Rosa,CA,38.475626,-122.730718
118198,MTI College,Sacramento,CA,38.6612373,-121.3425507
118347,College of Marin,Kentfield,CA,37.9507726,-122.5478097
118684,Mendocino College,Ukiah,CA,39.1893024,-123.2293959
118693,Menlo College,Atherton,CA,37.4567217,-122.1926482
118718,Merced College,Merced,CA,37.3346619,-120.4736278
118772,Merritt College,Oakland,CA,37.7903354,-122.1647641
118912,MiraCosta College,Oceanside,CA,33.1907697,-117.3023599
118930,Mission College,Santa Clara,CA,37.3923125,-121.9828889
118958,Modern Beauty Academy,Oxnard,CA,34.180157,-118.50983
118976,Modesto Junior College,Modesto,CA,37.6538032,-121.0097842
118994,Moler Barber College,Oakland,CA,37.838028,-122.251294
119058,Middlebury Institute of International Studies at Monterey,Monterey,CA,38.258674,-122.491651
119067,Monterey Peninsula College,Monterey,CA,36.5909278,-121.8848368
119137,Moorpark College,Moorpark,CA,34.2996156,-118.8366649
119164,Mt San Antonio College,Walnut,CA,34.0487669,-117.8416025
119173,Mount Saint Mary's University,Los Angeles,CA,34.0852201,-118.4824686
119216,Mt San Jacinto Community College District,San Jacinto,CA,33.805658,-116.969783
119270,Musicians Institute,Hollywood,CA,34.1009721,-118.3375812
119331,Napa Valley College,Napa,CA,38.2740159,-122.2763725
119553,National Holistic Institute,Emeryville,CA,37.8419406,-122.2878593
119605,National University,San Diego,CA,32.9096975,-117.2432041
119678,Naval Postgraduate School,Monterey,CA,36.596924,-121.8732706
119775,Newschool of Architecture and Design,San Diego,CA,32.7133688,-117.1533911
119951,North Adrian's College of Beauty Inc,Modesto,CA,37.647304,-121.006636
120069,North-West College-Pomona,Pomona,CA,34.07589,-117.714859
120078,North-West College-West Covina,West Covina,CA,34.087128,-117.883096
120087,North-West College-Van Nuys,Van Nuys,CA,35.116428,-117.935425
120166,San Francisco Bay University,Fremont,CA,37.543326,-121.979929
120184,Notre Dame de Namur University,Belmont,CA,37.5168814,-122.2849679
120254,Occidental College,Los Angeles,CA,34.1261596,-118.2139571
120290,Ohlone College,Fremont,CA,37.533546,-121.9063319
120342,Orange Coast College,Costa Mesa,CA,33.6715898,-117.9121267
120403,Otis College of Art and Design,Los Angeles,CA,33.956739,-118.4171692
120421,Oxnard College,Oxnard,CA,34.165713,-119.1555256
120537,Hope International University,Fullerton,CA,33.8774019,-117.8851449
120661,Concorde Career College-San Diego,San Diego,CA,32.7027667,-117.102846
120698,Palo Alto University,Palo Alto,CA,37.3828147,-122.1870424
120768,Pacific Oaks College,Pasadena,CA,34.1521684,-118.160504
120795,Pacific School of Religion,Berkeley,CA,37.8764657,-122.2633513
120838,Pacific States University,Los Angeles,CA,34.0613171,-118.2985065
120865,Pacific Union College,Angwin,CA,38.5702492,-122.4404486
120883,University of the Pacific,Stockton,CA,37.9804237,-121.3128472
120953,Palo Verde College,Blythe,CA,33.6184169,-114.6068485
120971,Palomar College,San Marcos,CA,33.15125,-117.1808184
121044,Pasadena City College,Pasadena,CA,34.1440002,-118.1185206
121150,Pepperdine University,Malibu,CA,36.338397,-119.3266
121257,Pitzer College,Claremont,CA,34.1047176,-117.7050428
121275,Platt College-San Diego,San Diego,CA,32.7636128,-117.0639396
121309,Point Loma Nazarene University,San Diego,CA,32.7169659,-117.2510853
121345,Pomona College,Claremont,CA,34.0974775,-117.7117275
121363,Porterville College,Porterville,CA,36.0471977,-119.0154854
121433,Professional Institute of Beauty,El Monte,CA,34.916641,-120.438264
121619,Santa Ana College,Santa Ana,CA,33.7576195,-117.8887602
121628,Pardee RAND Graduate School,Santa Monica,CA,34.0100266,-118.4911857
121637,Shasta School of Cosmetology,Redding,CA,40.5971112,-122.3872615
121691,University of Redlands,Redlands,CA,34.0632968,-117.1638558
121707,College of the Redwoods,Eureka,CA,35.116428,-117.935425
121859,Salon Success Academy-Upland,Upland,CA,34.1081595,-117.6317462
121868,Salon Success Academy-Corona,Corona,CA,33.933403,-117.597747
121886,Rio Hondo College,Whittier,CA,34.0198288,-118.0323015
121901,Riverside City College,Riverside,CA,33.9716586,-117.3806576
122117,Dongguk University Los Angeles,Los Angeles,CA,34.0659544,-118.2895024
122180,Sacramento City College,Sacramento,CA,38.5423995,-121.4900622
122205,Saddleback College,Mission Viejo,CA,33.5554406,-117.6639832
122296,Samuel Merritt University,Oakland,CA,37.8205823,-122.2664037
122339,San Diego City College,San Diego,CA,32.7197942,-117.1543311
122375,San Diego Mesa College,San Diego,CA,32.8047981,-117.1680666
122384,San Diego Miramar College,San Diego,CA,32.9075467,-117.1189218
122409,San Diego State University,San Diego,CA,32.7761529,-117.0733037
122436,University of San Diego,San Diego,CA,32.7726579,-117.1890752
122506,San Francisco Conservatory of Music,San Francisco,CA,37.7755389,-122.4203941
122597,San Francisco State University,San Francisco,CA,37.7245167,-122.4800002
122612,University of San Francisco,San Francisco,CA,37.7793627,-122.4514473
122649,San Joaquin College of Law,Clovis,CA,36.8245758,-119.6975673
122658,San Joaquin Delta College,Stockton,CA,37.9952557,-121.3193097
122685,San Joaquin Valley College-Visalia,Visalia,CA,36.3285018,-119.3847491
122694,San Joaquin Valley College-Bakersfield,Bakersfield,CA,35.3527276,-119.061996
122728,William Jessup University,Rocklin,CA,38.8200917,-121.2924904
122746,San Jose City College,San Jose,CA,37.313909,-121.9271204
122755,San Jose State University,San Jose,CA,37.3351902,-121.881228
122791,College of San Mateo,San Mateo,CA,37.5350308,-122.3347573
122889,Santa Barbara City College,Santa Barbara,CA,34.4058643,-119.6974204
122931,Santa Clara University,Santa Clara,CA,37.3486243,-121.936544
122977,Santa Monica College,Santa Monica,CA,34.0167113,-118.4707609
123013,Santa Rosa Junior College,Santa Rosa,CA,38.4546363,-122.7216065
123095,Saybrook University,Pasadena,CA,34.173752,-118.117348
123165,Scripps College,Claremont,CA,34.1039184,-117.7093442
123217,College of the Sequoias,Visalia,CA,36.3242822,-119.3162948
123280,Shasta Bible College and Graduate School,Redding,CA,40.687374,-122.399002
123299,Shasta College,Redding,CA,40.6273671,-122.3143175
123341,Sierra College,Rocklin,CA,38.7944398,-121.210556
123350,Sierra College of Beauty,Merced,CA,37.3069354,-120.4958681
123448,Trinity Law School,Santa Ana,CA,33.7654234,-117.8518676
123457,Simpson University,Redding,CA,40.6142212,-122.3321006
123484,College of the Siskiyous,Weed,CA,41.4116919,-122.3904992
123493,Charles A Jones Career and Education Center,Sacramento,CA,38.454236,-121.395292
123509,Skyline College,San Bruno,CA,37.6305806,-122.4660086
123527,San Bernardino Valley College,San Bernardino,CA,34.0870562,-117.3107368
123554,Saint Mary's College of California,Moraga,CA,37.8409597,-122.109459
123563,Solano Community College,Fairfield,CA,38.257577,-121.993257
123572,Sonoma State University,Rohnert Park,CA,38.3398265,-122.6734192
123633,South Baylo University,Anaheim,CA,33.8482734,-117.9585412
123642,South Coast College,Orange,CA,33.788195,-117.8742435
123651,Vanguard University of Southern California,Costa Mesa,CA,33.6619658,-117.9021546
123679,Concorde Career College-Garden Grove,Garden Grove,CA,33.7752416,-117.9392446
123800,Southwestern College,Chula Vista,CA,32.6399476,-116.9980493
123916,Starr King School for the Ministry,Oakland,CA,37.834015,-122.226639
123943,Marshall B Ketchum University,Fullerton,CA,35.124625,-117.999042
123952,Southern California Institute of Architecture,Los Angeles,CA,34.0431787,-118.2328067
123961,University of Southern California,Los Angeles,CA,34.0218689,-118.2858579
123970,Southwestern Law School,Los Angeles,CA,34.0606083,-118.2895821
124113,Taft College,Taft,CA,35.1494113,-119.460119
124283,Claremont School of Theology,Claremont,CA,34.121609,-117.704099
124292,Thomas Aquinas College,Santa Paula,CA,35.116428,-117.935425
124487,Epic Bible College & Graduate School,Sacramento,CA,38.648896,-121.351507
124681,UEI College-Huntington Park,Huntington Park,CA,35.116428,-117.935425
124706,Concorde Career College-San Bernardino,San Bernardino,CA,34.066719,-117.2840317
124937,Concorde Career College-North Hollywood,North Hollywood,CA,34.1863401,-118.4036149
125028,Ventura College,Ventura,CA,34.2772814,-119.2326722
125037,The Colleges of Law at Ventura,Ventura,CA,35.150204,-118.006094
125082,Bridges Beauty College,Victorville,CA,35.116428,-117.935425
125091,Victor Valley College,Victorville,CA,35.125726,-118.001023
125170,Berkeley City College,Berkeley,CA,37.869799,-122.2696855
125231,Walden University,Minneapolis,MN,45.007774,-93.22531
125310,Waynes College of Beauty,Salinas,CA,36.669042,-121.666765
125462,West Hills College-Coalinga,Coalinga,CA,36.1492232,-120.3567433
125471,West Los Angeles College,Culver City,CA,34.0045672,-118.3870271
125499,West Valley College,Saratoga,CA,37.2637874,-122.0097039
125532,Carrington College-Sacramento,Sacramento,CA,38.5559866,-121.3712591
125718,Westminster Theological Seminary in California,Escondido,CA,33.1226178,-117.0471479
125727,Westmont College,Santa Barbara,CA,34.4504079,-119.6615297
125763,Whittier College,Whittier,CA,33.9778416,-118.0302221
125897,Woodbury University,Burbank,CA,34.2078523,-118.34097
126012,The Wright Institute,Berkeley,CA,37.8683834,-122.2531671
126049,Thomas Jefferson School of Law,San Diego,CA,32.710167,-117.1542101
126076,Yeshiva Ohr Elchonon Chabad West Coast Talmudical Seminary,Los Angeles,CA,34.0855544,-118.3467456
126119,Yuba College,Marysville,CA,39.141917,-121.583439
126182,Adams State University,Alamosa,CO,37.4748024,-105.8819231
126207,Aims Community College,Greeley,CO,40.4093603,-104.763332
126289,Arapahoe Community College,Littleton,CO,39.6080046,-105.0182713
126359,Bel-Rea Institute of Animal Technology,Denver,CO,39.68617,-104.8764948
126562,University of Colorado Denver/Anschutz Medical Campus,Denver,CO,39.716654,-104.959313
126580,University of Colorado Colorado Springs,Colorado Springs,CO,38.8924932,-104.7996978
126605,Spartan College of Aeronautics and Technology,Broomfield,CO,39.91483,-105.1191058
126614,University of Colorado Boulder,Boulder,CO,40.0075984,-105.2691008
126669,Colorado Christian University,Lakewood,CO,39.7123629,-105.105991
126678,Colorado College,Colorado Springs,CO,38.8480439,-104.8239509
126687,Concorde Career College-Aurora,Aurora,CO,39.718585,-104.8666803
126711,Colorado Mountain College,Glenwood Springs,CO,39.4710938,-107.2358864
126748,Colorado Northwestern Community College,Rangely,CO,40.51426,-107.54004
126775,Colorado School of Mines,Golden,CO,39.7386338,-105.2246389
126784,Colorado School of Trades,Lakewood,CO,39.741836,-105.1042144
126818,Colorado State University-Fort Collins,Fort Collins,CO,40.5706567,-105.0853995
126827,Colorado Technical University-Colorado Springs,Colorado Springs,CO,38.8936578,-104.8337091
126863,Community College of Aurora,Aurora,CO,39.7190615,-104.8017968
126915,Technical College of the Rockies,Delta,CO,39.041979,-107.964517
126942,Community College of Denver,Denver,CO,39.7414381,-105.0049996
126951,Lincoln College of Technology-Denver,Denver,CO,39.7769325,-104.8563333
126979,Denver Seminary,Littleton,CO,39.6006505,-105.0220638
127060,University of Denver,Denver,CO,39.6783136,-104.9625092
127158,Emily Griffith Technical College,Denver,CO,39.668545,-105.015715
127185,Fort Lewis College,Durango,CO,37.2771975,-107.86763
127200,Front Range Community College,Westminster,CO,39.901215,-105.039047
127273,Iliff School of Theology,Denver,CO,39.674825,-104.995985
127316,International Salon and Spa Academy,Colorado Springs,CO,38.827774,-104.784642
127389,Lamar Community College,Lamar,CO,38.0671492,-102.6159617
127556,Colorado Mesa University,Grand Junction,CO,39.0819157,-108.5559956
127565,Metropolitan State University of Denver,Denver,CO,39.7434647,-105.0043402
127617,Morgan Community College,Fort  Morgan,CO,40.2591245,-103.7712257
127653,Naropa University,Boulder,CO,40.0140794,-105.2669594
127714,Nazarene Bible College,Colorado Springs,CO,38.8178106,-104.7518841
127732,Northeastern Junior College,Sterling,CO,40.638415,-103.2146433
127741,University of Northern Colorado,Greeley,CO,40.4028503,-104.7017242
127778,Otero College,La Junta,CO,37.9711204,-103.5438322
127820,Pikes Peak State College,Colorado Springs,CO,38.8355237,-104.8272578
127884,Pueblo Community College,Pueblo,CO,38.2631861,-104.6371719
127909,Red Rocks Community College,Lakewood,CO,39.720941,-105.148909
127918,Regis University,Denver,CO,39.7897111,-105.0313695
127945,Rocky Mountain College of Art and Design,Lakewood,CO,39.7435698,-105.0696495
127954,Montessori Education Center of the Rockies,Denver,CO,39.705702,-104.982792
128106,Colorado State University Pueblo,Pueblo,CO,38.3087419,-104.5768455
128151,Pickens Technical College,Aurora,CO,39.7225865,-104.7902345
128179,Intellitec College-Colorado Springs,Colorado Springs,CO,38.729874,-104.701715
128188,Intellitec College-Grand Junction,Grand Junction,CO,39.0781105,-108.5651775
128258,Trinidad State College,Trinidad,CO,37.1730443,-104.5136877
128328,United States Air Force Academy,USAF Academy,CO,39.00027,-105.50083
128337,Empire Beauty School-Thornton,Thornton,CO,39.95851,-104.874222
128391,Western Colorado University,Gunnison,CO,38.5503302,-106.9191659
128498,Albertus Magnus College,New Haven,CT,41.332772,-72.9225456
128577,Asnuntuck Community College,Enfield,CT,41.997405,-72.5700428
128586,Bais Binyomin Academy,Monsey,NY,40.860475,-73.921234
128744,University of Bridgeport,Bridgeport,CT,41.1646585,-73.1904612
128771,Central Connecticut State University,New Britain,CT,41.6929277,-72.765429
128780,Charter Oak State College,New Britain,CT,41.6882277,-72.7679692
128896,Cortiva Institute,Cromwell,CT,41.6036947,-72.6787256
128902,Connecticut College,New London,CT,41.3791334,-72.1065306
129002,Porter & Chester Institute of Hamden,Hamden,CT,41.355934,-72.934432
129020,University of Connecticut,Storrs,CT,41.8217576,-72.2427754
129154,Goodwin University,East Hartford,CT,41.7414433,-72.6378499
129181,Lincoln Technical Institute-East Windsor,East Windsor,CT,41.9239587,-72.5966027
129215,Eastern Connecticut State University,Willimantic,CT,41.7210177,-72.217649
129242,Fairfield University,Fairfield,CT,41.1596756,-73.2574031
129349,Paul Mitchell the School-North Haven,North Haven,CT,41.372724,-72.885306
129367,Capital Community College,Hartford,CT,41.7683411,-72.6725952
129428,Rensselaer at Hartford,Hartford,CT,41.7736393,-72.6738766
129482,American Institute-West Hartford,West Hartford,CT,41.765591,-72.671866
129491,Hartford International University for Religion and Peace,Hartford,CT,41.7699931,-72.7076408
129525,University of Hartford,West Hartford,CT,41.8002648,-72.7141205
129534,Holy Apostles College and Seminary,Cromwell,CT,41.6061767,-72.645404
129543,Housatonic Community College,Bridgeport,CT,41.1746056,-73.190672
129695,Manchester Community College,Manchester,CT,41.7614377,-72.5622718
129729,Naugatuck Valley Community College,Waterbury,CT,41.5488249,-73.0711674
129756,Middlesex Community College,Middletown,CT,41.5396356,-72.6110492
129774,Mitchell College,New London,CT,41.3276537,-72.09621
129808,Three Rivers Community College,Norwich,CT,41.5091387,-72.1024841
129923,Lincoln Technical Institute-New Britain,New Britain,CT,41.6594184,-72.7545503
129932,New England Tractor Trailer Training School of Connecticut,Somers,CT,41.982725,-72.488115
129941,University of New Haven,West Haven,CT,41.2909137,-72.9626388
130004,Norwalk Community College,Norwalk,CT,41.1018464,-73.4531488
130040,Northwestern Connecticut Community College,Winsted,CT,41.924837,-73.059188
130110,Paier College,Bridgeport,CT,41.167333,-73.224453
130174,Porter & Chester Institute,Bridgeport,CT,41.194041,-73.198572
130183,Post University,Waterbury,CT,41.5346635,-73.0820163
130217,Quinebaug Valley Community College,Danielson,CT,41.8252215,-71.890382
130226,Quinnipiac University,Hamden,CT,41.4181949,-72.8931049
130253,Sacred Heart University,Fairfield,CT,41.2225974,-73.2444673
130314,University of Saint Joseph,West Hartford,CT,41.7825213,-72.7312066
130396,Gateway Community College,New Haven,CT,41.3039938,-72.9278893
130493,Southern Connecticut State University,New Haven,CT,41.3342104,-72.9450826
130590,Trinity College,Hartford,CT,41.7518039,-72.6901167
130606,Tunxis Community College,Farmington,CT,41.7049406,-72.8780777
130624,United States Coast Guard Academy,New London,CT,41.300139,-72.253742
130697,Wesleyan University,Middletown,CT,41.5559033,-72.6559884
130776,Western Connecticut State University,Danbury,CT,41.4004954,-73.445022
130794,Yale University,New Haven,CT,41.3135727,-72.9231731
130837,Margaret H Rollins School of Nursing at Beebe Medical Center,Lewes,DE,38.768426,-75.145394
130873,Dawn Career Institute LLC,Newark,DE,39.624029,-75.691927
130907,Delaware Technical Community College-Terry,Dover,DE,39.1986407,-75.5611822
130934,Delaware State University,Dover,DE,39.1867993,-75.5423583
130943,University of Delaware,Newark,DE,39.6803338,-75.7530749
130989,Goldey-Beacom College,Wilmington,DE,39.685196,-75.733674
131061,Schilling-Douglas School of Hair Design LLC,Newark,DE,39.632204,-75.748907
131113,Wilmington University,New Castle,DE,39.6821331,-75.5869978
131159,American University,Washington,DC,38.938045,-77.0893922
131283,The Catholic University of America,Washington,DC,38.926396,-77.098739
131399,University of the District of Columbia,Washington,DC,38.9449357,-77.0663177
131405,Pontifical Faculty of the Immaculate Conception at the Dominican House of Studies,Washington,DC,38.895112,-77.036366
131450,Gallaudet University,Washington,DC,38.9083288,-76.9916857
131469,George Washington University,Washington,DC,38.8998938,-77.0474483
131496,Georgetown University,Washington,DC,38.9089393,-77.0745796
131520,Howard University,Washington,DC,38.9218972,-77.0195931
131803,Strayer University-District of Columbia,Washington,DC,38.9048547,-77.0343053
131830,National Conservatory of Dramatic Arts,Washington,DC,38.895112,-77.036366
131876,Trinity Washington University,Washington,DC,38.9279405,-77.0028627
131973,Wesley Theological Seminary,Washington,DC,38.9397017,-77.0903127
132374,Atlantic Technical College,Coconut Creek,FL,26.231518,-80.145618
132408,The Baptist College of Florida,Graceville,FL,30.9625117,-85.5044007
132471,Barry University,Miami,FL,25.8790289,-80.2015168
132602,Bethune-Cookman University,Daytona Beach,FL,29.2118536,-81.0319825
132657,Lynn University,Boca Raton,FL,26.3837711,-80.1254028
132675,North Florida Technical College,Starke,FL,29.951429,-82.102159
132693,Eastern Florida State College,Melbourne,FL,28.1687357,-80.6717963
132709,Broward College,Fort Lauderdale,FL,26.1038889,-80.1947222
132842,Albizu University-Miami,Miami,FL,25.7947127,-80.3549018
132851,College of Central Florida,Ocala,FL,29.1657027,-82.1788352
132879,Johnson University Florida,Kissimmee,FL,28.25597,-81.468025
132903,University of Central Florida,Orlando,FL,28.5989975,-81.197125
132976,Charlotte Technical College,Port Charlotte,FL,27.0055115,-82.146328
133021,Chipola College,Marianna,FL,30.7912692,-85.2314061
133155,Lorenzo Walker Technical College,Naples,FL,26.1412106,-81.7636386
133386,Daytona State College,Daytona Beach,FL,29.2031792,-81.0502093
133465,South University-West Palm Beach,Royal Palm Beach,FL,26.6926631,-80.1996383
133492,Eckerd College,Saint Petersburg,FL,27.7142658,-82.6855432
133508,Florida SouthWestern State College,Fort Myers,FL,26.5511903,-81.8894661
133526,Edward Waters University,Jacksonville,FL,30.3450461,-81.6848061
133553,Embry-Riddle Aeronautical University-Daytona Beach,Daytona Beach,FL,29.1917532,-81.0495839
133650,Florida Agricultural and Mechanical University,Tallahassee,FL,30.4227425,-84.2875987
133669,Florida Atlantic University,Boca Raton,FL,26.3743445,-80.1027236
133702,Florida State College at Jacksonville,Jacksonville,FL,30.224434,-81.886917
133711,Flagler College,Saint Augustine,FL,29.8905951,-81.3159364
133809,Florida College,Temple Terrace,FL,28.034465,-82.3833821
133845,Concorde Career Institute-Jacksonville,Jacksonville,FL,30.2388791,-81.5812617
133854,Concorde Career Institute-Miramar,Miramar,FL,25.9779075,-80.2913569
133863,Concorde Career Institute-Tampa,Tampa,FL,27.9591147,-82.5143299
133872,AdventHealth University,Orlando,FL,28.5765039,-81.3675014
133881,Florida Institute of Technology,Melbourne,FL,28.064271,-80.623004
133951,Florida International University,Miami,FL,25.7553898,-80.3762833
133960,The College of the Florida Keys,Key West,FL,24.5832723,-81.7437744
133979,Florida Memorial University,Miami Gardens,FL,25.9175201,-80.2706854
133997,Florida Career College-Miami,Miami,FL,25.7803767,-80.2275489
134024,Florida School of Massage,Gainesville,FL,30.731519,-85.35337
134079,Florida Southern College,Lakeland,FL,28.0304561,-81.9455425
134097,Florida State University,Tallahassee,FL,30.44236,-84.2974787
134130,University of Florida,Gainesville,FL,29.6328837,-82.349013
134228,Fort Pierce Beauty Academy,Fort Pierce,FL,27.52101,-80.402549
134237,Full Sail University,Winter Park,FL,28.5930223,-81.3050127
134291,George Stone Technical College,Pensacola,FL,30.436446,-87.272455
134307,George T Baker Aviation Technical College,Miami,FL,25.736459,-80.23728
134343,Gulf Coast State College,Panama City,FL,30.1861197,-85.7254378
134422,Key College,Fort Lauderdale,FL,26.088321,-80.237836
134495,Hillsborough Community College,Tampa,FL,27.9347217,-82.4566066
134510,Hobe Sound Bible College,Hobe Sound,FL,27.065936,-80.1322764
134529,Hollywood Institute of Beauty Careers,Hollywood,FL,26.012017,-80.125495
134574,Cortiva Institute,St. Petersburg,FL,27.77086,-82.67927
134608,Indian River State College,Fort Pierce,FL,27.419618,-80.3598103
134714,International Academy,South Daytona,FL,29.1622556,-80.9978302
134811,AI Miami International University of Art and Design,Miami,FL,25.734292,-80.275221
134945,Jacksonville University,Jacksonville,FL,30.3537227,-81.6073061
135081,Keiser University-Ft Lauderdale,Fort Lauderdale,FL,26.008191,-80.247984
135142,La Belle Beauty School,Hialeah,FL,25.8668939,-80.3125559
135160,Florida Gateway College,Lake City,FL,30.1748709,-82.5687592
135179,Lake Technical College,Eustis,FL,28.935387,-81.433287
135188,Lake-Sumter State College,Leesburg,FL,28.8291629,-81.7965352
135267,Fort Myers Technical College,Fort Myers,FL,26.597956,-81.846331
135276,Lively Technical College,Tallahassee,FL,30.4493452,-84.3400593
135294,Lindsey Hopkins Technical College,Miami,FL,25.7945465,-80.2081569
135337,Loraines Academy & Spa,Saint Petersburg,FL,27.71865,-82.691361
135364,Luther Rice College & Seminary,Lithonia,GA,33.829492,-84.078355
135391,State College of Florida-Manatee-Sarasota,Bradenton,FL,27.4387278,-82.5895471
135407,Manatee Technical College,Bradenton,FL,27.497064,-82.710988
135522,Traviss Technical College,Lakeland,FL,27.978565,-81.966214
135559,Merryfield School of Pet Grooming,Oakland Park,FL,28.923978,-81.237093
135610,Trinity International University-Florida,Miami,FL,25.7733333,-80.195
135647,Miami Lakes Educational Center and Technical College,Miami Lakes,FL,25.910513,-80.301571
135717,Miami Dade College,Miami,FL,25.780295,-80.18971
135726,University of Miami,Coral Gables,FL,25.7172724,-80.2787069
135735,Orange Technical College-Mid Florida Campus,Orlando,FL,28.4704102,-81.4155579
136109,Paul Mitchell the School-Jacksonville,Jacksonville,FL,30.33218,-81.65565
136145,North Florida College,Madison,FL,30.4752833,-83.4219327
136172,University of North Florida,Jacksonville,FL,30.2689865,-81.5096561
136215,Nova Southeastern University,Fort Lauderdale,FL,26.0875788,-80.1496886
136233,Northwest Florida State College,Niceville,FL,30.528699,-86.495747
136303,Orange Technical College,Orlando,FL,28.5503233,-81.3836883
136330,Palm Beach Atlantic University,West Palm Beach,FL,26.677638,-80.190689
136358,Palm Beach State College,Lake Worth,FL,26.6137719,-80.0858653
136400,Pasco-Hernando State College,New Port Richey,FL,25.071815,-80.464813
136473,Pensacola State College,Pensacola,FL,30.4800624,-87.2017822
136491,Pinellas Technical College-Clearwater,Clearwater,FL,27.971688,-82.797457
136516,Polk State College,Winter Haven,FL,28.0331349,-81.715241
136659,Radford M Locklin Technical College,Milton,FL,30.629151,-87.050238
136701,Saint Vincent de Paul Regional Seminary,Boynton Beach,FL,26.68471,-80.05081
136765,Ridge Technical College,Winter Haven,FL,28.0758037,-81.6555384
136774,Ringling College of Art and Design,Sarasota,FL,27.3606149,-82.5489317
136826,Robert Morgan Educational Center and Technical College,Miami,FL,25.732892,-80.238605
136950,Rollins College,Winter Park,FL,28.5925001,-81.3489577
137023,First Coast Technical College,Saint Augustine,FL,29.9245829,-81.345574
137032,Saint Leo University,Saint Leo,FL,28.3385394,-82.2580705
137078,St Petersburg College,St. Petersburg,FL,27.7577433,-82.6626254
137087,Pinellas Technical College-St. Petersburg,Saint Petersburg,FL,27.760757,-82.6817772
137096,Santa Fe College,Gainesville,FL,29.6548957,-82.3305519
137120,Suncoast Technical College,Sarasota,FL,27.286266,-82.5002397
137209,Seminole State College of Florida,Sanford,FL,28.813645,-81.26498
137245,Sheridan Technical College,Hollywood,FL,26.0315146,-80.1984172
137272,St. John Vianney College Seminary,Miami,FL,25.7428784,-80.3381077
137281,Saint Johns River State College,Palatka,FL,29.71987,-81.723879
137315,South Florida State College,Avon Park,FL,27.5696237,-81.5040563
137351,University of South Florida,Tampa,FL,28.0599999,-82.4138362
137476,St. Thomas University,Miami Gardens,FL,25.921286,-80.2564809
137546,Stetson University,DeLand,FL,29.0365347,-81.3005411
137564,Southeastern University,Lakeland,FL,28.0304837,-81.9180091
137591,Bene's Career Academy,New Port Richey,FL,28.190204,-82.7058
137713,Riveroak Technical College,Live Oak,FL,30.114429,-81.73393
137759,Tallahassee Community College,Tallahassee,FL,30.4429211,-84.3410479
137777,Talmudic College of Florida,Miami Beach,FL,25.81021,-80.265611
137801,Altierus Career College-Tampa,Tampa,FL,28.012656,-82.561668
137847,The University of Tampa,Tampa,FL,27.945565,-82.463843
137856,Big Bend Technical College,Perry,FL,30.121999,-83.580179
137865,Tom P. Haney Technical College,Panama City,FL,30.2030583,-85.6475822
137953,Trinity Baptist College,Jacksonville,FL,30.33218,-81.65565
137962,Trinity College of Florida,Trinity,FL,28.1939181,-82.6783596
138187,Valencia College,Orlando,FL,28.5537067,-81.2718766
138275,Warner University,Lake Wales,FL,27.829418,-81.599912
138284,Florida Panhandle Technical College,Chipley,FL,30.7743585,-85.5527077
138293,Webber International University,Babson Park,FL,27.844953,-81.537647
138309,Rasmussen University-Florida,Ocala,FL,29.1401913,-82.1972322
138354,The University of West Florida,Pensacola,FL,30.4390891,-84.2929557
138372,Orange Technical College-Westside Campus,Winter Garden,FL,28.555544,-81.591329
138479,William T McFatter Technical College,Davie,FL,26.088312,-80.235888
138488,Orange Technical College-East Campus,Winter Park,FL,28.596657,-81.378431
138497,Withlacoochee Technical College,Inverness,FL,28.813031,-82.332009
138558,Abraham Baldwin Agricultural College,Tifton,GA,31.4850217,-83.5333475
138600,Agnes Scott College,Decatur,GA,33.7688851,-84.2944452
138655,Interactive College of Technology-Chamblee,Chamblee,GA,33.8868078,-84.304467
138664,Interactive College of Technology-Morrow,Morrow,GA,31.275059,-83.463844
138682,Albany Technical College,Albany,GA,31.5541724,-84.1749171
138716,Albany State University,Albany,GA,31.5678798,-84.1405794
138761,Andrew College,Cuthbert,GA,31.7721955,-84.7957087
138813,The Art Institute of Atlanta,Atlanta,GA,33.763349,-84.504892
138822,Georgia Career Institute,Conyers,GA,33.633834,-83.998953
138840,Atlanta Technical College,Atlanta,GA,33.7121834,-84.4047133
138868,Point University,West Point,GA,32.052134,-84.801616
138901,Atlanta Metropolitan State College,Atlanta,GA,33.7069374,-84.4069973
138929,Atlanta's John Marshall Law School,Atlanta,GA,33.796762,-84.494697
138938,Atlanta School of Massage,Atlanta,GA,33.730374,-84.384382
138947,Clark Atlanta University,Atlanta,GA,33.7501247,-84.411589
138956,Augusta Technical College,Augusta,GA,33.4184409,-82.0485458
139144,Berry College,Mount Berry,GA,34.293036,-85.1917409
139153,Beulah Heights University,Atlanta,GA,33.754397,-84.379455
139199,Brenau University,Gainesville,GA,34.3036901,-83.8223538
139205,Brewton-Parker College,Mount Vernon,GA,32.1862441,-82.5838967
139250,College of Coastal Georgia,Brunswick,GA,31.1829103,-81.4839464
139278,West Georgia Technical College,Waco,GA,33.6915057,-85.1831391
139311,Clayton  State University,Morrow,GA,33.5957185,-84.3310091
139348,Columbia Theological Seminary,Decatur,GA,33.7638051,-84.2808347
139357,Columbus Technical College,Columbus,GA,32.507851,-84.9779304
139366,Columbus State University,Columbus,GA,32.50189,-84.9415046
139384,Georgia Northwestern Technical College,Rome,GA,34.2250945,-85.1710616
139393,Covenant College,Lookout Mountain,GA,34.476988,-85.344787
139463,Dalton State College,Dalton,GA,34.7748018,-85.0027239
139506,Pro Way Hair School,Stone Mountain,GA,33.759858,-84.172201
139579,South University-Savannah,Savannah,GA,31.9992666,-81.1053094
139621,East Georgia State College,Swainsboro,GA,32.5921084,-82.306134
139630,Emmanuel College,Franklin Springs,GA,34.2820506,-83.1470939
139658,Emory University,Atlanta,GA,33.7969409,-84.3237147
139700,Georgia Highlands College,Rome,GA,34.274723,-85.134333
139719,Fort Valley State University,Fort Valley,GA,32.5336633,-83.8950462
139746,Grady Health System Professional Schools,Atlanta,GA,33.885711,-84.461034
139755,Georgia Institute of Technology-Main Campus,Atlanta,GA,33.92785,-84.246782
139764,Georgia Southwestern State University,Americus,GA,32.0558659,-84.2174443
139861,Georgia College & State University,Milledgeville,GA,33.08005,-83.2318008
139931,Georgia Southern University,Statesboro,GA,32.4214381,-81.7845053
139940,Georgia State University,Atlanta,GA,33.7535889,-84.3854209
139959,University of Georgia,Athens,GA,33.9404278,-83.373049
139968,Gordon State College,Barnesville,GA,33.0473397,-84.150835
139986,Southern Crescent Technical College,Griffin,GA,33.2553595,-84.2912805
139995,Gupton Jones College of Funeral Service,Decatur,GA,33.7105009,-84.1795843
140003,Gwinnett College-Lilburn,Lilburn,GA,33.9014303,-84.1219738
140012,Gwinnett Technical College,Lawrenceville,GA,33.9632735,-84.0672921
140146,Interdenominational Theological Center,Atlanta,GA,33.7534529,-84.4094361
140234,LaGrange College,Lagrange,GA,33.033811,-85.0467503
140243,Lanier Technical College,Gainesville,GA,34.3296069,-83.7767985
140252,Life University,Marietta,GA,33.9311113,-84.5174088
140331,Chattahoochee Technical College,Marietta,GA,33.9294803,-84.5530073
140340,Herzing University-Atlanta,Atlanta,GA,33.7543408,-84.3870791
140447,Mercer University,Macon,GA,32.8289341,-83.6506702
140553,Morehouse College,Atlanta,GA,33.747374,-84.4160951
140562,Morehouse School of Medicine,Atlanta,GA,33.7431332,-84.4120967
140571,Morris Brown College,Atlanta,GA,33.7555819,-84.4089586
140678,North Georgia Technical College,Clarkesville,GA,33.806602,-84.239491
140696,Oglethorpe University,Atlanta,GA,33.735838,-84.414096
140720,Paine College,Augusta,GA,33.4694315,-81.9956032
140818,Piedmont University,Demorest,GA,34.5656942,-83.54409
140827,Miami Ad School-Atlanta,Atlanta,GA,33.828274,-84.366962
140872,Reinhardt University,Waleska,GA,34.3218607,-84.552744
140942,Savannah Technical College,Savannah,GA,32.0233058,-81.1153119
140951,Savannah College of Art and Design,Savannah,GA,32.0777692,-81.1009937
140960,Savannah State University,Savannah,GA,32.0244257,-81.0624808
140988,Shorter University,Rome,GA,34.2594287,-85.1952751
141006,South Georgia Technical College,Americus,GA,32.1156711,-84.1901357
141060,Spelman College,Atlanta,GA,33.7451997,-84.4112866
141167,Thomas University,Thomasville,GA,30.8151379,-83.9643526
141185,Toccoa Falls College,Toccoa Falls,GA,34.5937089,-83.3563466
141237,Truett McConnell University,Cleveland,GA,34.618161,-83.65415
141255,Wiregrass Georgia Technical College,Valdosta,GA,30.8893931,-83.355142
141264,Valdosta State University,Valdosta,GA,30.8472323,-83.2889807
141325,Wesleyan College,Macon,GA,32.8746819,-83.7167939
141334,University of West Georgia,Carrollton,GA,33.5750493,-85.1033601
141361,Young Harris College,Young Harris,GA,34.9357023,-83.8459681
141486,Chaminade University of Honolulu,Honolulu,HI,21.287489,-157.826037
141565,University of Hawaii at Hilo,Hilo,HI,20.2207,-155.83028
141574,University of Hawaii at Manoa,Honolulu,HI,21.2982795,-157.8186919
141608,Hawaii Institute of Hair Design,Honolulu,HI,21.3114464,-157.8615761
141644,Hawaii Pacific University,Honolulu,HI,21.3795227,-157.7830819
141680,Honolulu Community College,Honolulu,HI,21.3210463,-157.8697762
141796,Kapiolani Community College,Honolulu,HI,21.2687466,-157.801686
141802,Kauai Community College,Lihue,HI,21.992349,-159.35217
141811,Leeward Community College,Pearl City,HI,21.3924474,-157.9833365
141839,University of Hawaii Maui College,Kahului,HI,20.8906488,-156.4798899
141981,University of Hawaii-West Oahu,Kapolei,HI,21.3576111,-158.0573437
141990,Windward Community College,Kaneohe,HI,21.4085551,-157.8134657
142054,Carrington College-Boise,Boise,ID,43.6156543,-116.2601963
142090,Boise Bible College,Boise,ID,43.635982,-116.033712
142115,Boise State University,Boise,ID,43.6031707,-116.2026107
142179,College of Eastern Idaho,Idaho Falls,ID,43.485678,-111.9865311
142276,Idaho State University,Pocatello,ID,42.862567,-112.4321627
142285,University of Idaho,Moscow,ID,46.7237978,-117.020439
142294,The College of Idaho,Caldwell,ID,43.651679,-116.680574
142328,Lewis-Clark State College,Lewiston,ID,46.4108402,-117.0268096
142407,Aveda Institute-Twin Falls,Twin Falls,ID,42.400555,-114.524876
142443,North Idaho College,Coeur d'Alene,ID,47.6783673,-116.7971286
142461,Northwest Nazarene University,Nampa,ID,43.5610104,-116.565824
142489,Nathan Layne Institute of Cosmetology,Chubbuck,ID,42.92075,-112.46609
142522,Brigham Young University-Idaho,Rexburg,ID,43.8173791,-111.782372
142559,College of Southern Idaho,Twin Falls,ID,42.5836002,-114.4723636
142832,Adler University,Chicago,IL,41.863546,-87.647277
142887,American Academy of Art College,Chicago,IL,41.880482,-87.647905
142957,American Islamic College,Chicago,IL,41.9549261,-87.6457926
143048,School of the Art Institute of Chicago,Chicago,IL,41.8789896,-87.6214996
143084,Augustana College,Rock Island,IL,41.5015277,-90.5503699
143118,Aurora University,Aurora,IL,41.754829,-88.3495036
143215,Southwestern Illinois College,Belleville,IL,38.5186599,-89.9210814
143233,Bethany Theological Seminary,Richmond,IN,39.826236,-84.9107159
143279,Black Hawk College,Moline,IL,41.4769912,-90.4489005
143288,Blackburn College,Carlinville,IL,39.2895977,-89.8715771
143297,Blessing Rieman College of Nursing and Health Sciences,Quincy,IL,39.939344,-91.365658
143358,Bradley University,Peoria,IL,40.6981131,-89.6155139
143376,Paul Mitchell The School Tinley Park,Tinley Park,IL,41.587829,-87.821659
143464,Cameo Beauty Academy,Oak Lawn,IL,37.84954,-89.274221
143473,Cannella School of Hair Design-Villa Park,Villa Park,IL,41.884743,-87.978996
143482,Cannella School of Hair Design-Chicago,Chicago,IL,41.941741,-87.654162
143491,Cannella School of Hair Design-Chicago,Chicago,IL,41.941741,-87.654162
143552,Capri Beauty College,Oak Forest,IL,41.603926,-87.7716142
143613,Carl Sandburg College,Galesburg,IL,40.9816116,-90.4069349
143659,Catholic Theological Union at Chicago,Chicago,IL,41.893392,-87.645968
143853,Midwestern University-Downers Grove,Downers Grove,IL,41.8286679,-87.9991253
143978,The Chicago School of Professional Psychology at Chicago,Chicago,IL,41.896785,-87.620369
144005,Chicago State University,Chicago,IL,41.7172702,-87.6095056
144014,Chicago Theological Seminary,Chicago,IL,41.7857087,-87.5910536
144050,University of Chicago,Chicago,IL,41.784977,-87.5905237
144157,City Colleges of Chicago-Kennedy-King College,Chicago,IL,41.861472,-87.646884
144166,City Colleges of Chicago-Malcolm X College,Chicago,IL,41.861472,-87.646884
144175,City Colleges of Chicago-Olive-Harvey College,Chicago,IL,41.861472,-87.646884
144184,City Colleges of Chicago-Harry S Truman College,Chicago,IL,41.861472,-87.646884
144193,City Colleges of Chicago-Richard J Daley College,Chicago,IL,41.861472,-87.646884
144209,City Colleges of Chicago-Harold Washington College,Chicago,IL,41.883177,-87.641232
144218,City Colleges of Chicago-Wilbur Wright College,Chicago,IL,41.861472,-87.646884
144281,Columbia College Chicago,Chicago,IL,41.8742404,-87.6247913
144351,Concordia University-Chicago,River Forest,IL,41.8993058,-87.8094576
144564,Danville Area Community College,Danville,IL,40.129215,-87.5863026
144573,Tricoci University of Beauty Culture,Urbana,IL,40.116318,-88.204968
144740,DePaul University,Chicago,IL,41.92402,-87.6547273
144795,Cosmetology & Spa Academy,Crystal Lake,IL,41.846582,-88.126291
144865,College of DuPage,Glen Ellyn,IL,41.841506,-88.0730037
144883,East-West University,Chicago,IL,41.8712502,-87.6247332
144892,Eastern Illinois University,Charleston,IL,39.479694,-88.1754902
144944,Elgin Community College,Elgin,IL,42.0186067,-88.3214746
144962,Elmhurst University,Elmhurst,IL,41.8971173,-87.9469201
144971,Eureka College,Eureka,IL,40.7130455,-89.2658809
145099,First Institute of Travel Inc.,Crystal Lake,IL,42.234797,-88.291452
145239,Fox College,Tinley Park,IL,41.596142,-87.843285
145275,Garrett-Evangelical Theological Seminary,Evanston,IL,42.0561643,-87.6758963
145309,Gem City College,Quincy,IL,39.939344,-91.365658
145336,Governors State University,University Park,IL,41.4469059,-87.719456
145354,Graham Hospital School of Nursing,Canton,IL,37.722871,-89.218025
145372,Greenville University,Greenville,IL,38.8941945,-89.4092571
145406,G Skin & Beauty Institute,Schaumburg,IL,42.03336,-88.08341
145424,Hair Professionals Career College,Sycamore,IL,41.841021,-88.085903
145433,Hair Professionals School of Cosmetology,Oswego,IL,41.777603,-88.14761
145497,Hebrew Theological College,Skokie,IL,42.0100755,-87.7609082
145521,Highland Community College,Freeport,IL,42.2835559,-89.6753648
145558,Rosalind Franklin University of Medicine and Science,North Chicago,IL,42.302182,-87.8584966
145600,University of Illinois Chicago,Chicago,IL,41.872236,-87.6819709
145619,Benedictine University,Lisle,IL,41.7779976,-88.0969936
145628,Illinois College of Optometry,Chicago,IL,41.8359686,-87.6225916
145637,University of Illinois Urbana-Champaign,Champaign,IL,40.0761545,-88.2233134
145646,Illinois Wesleyan University,Bloomington,IL,40.4924271,-88.9904211
145682,Illinois Central College,East Peoria,IL,40.7083389,-89.5190958
145691,Illinois College,Jacksonville,IL,39.7291655,-90.2464732
145707,Olney Central College,Olney,IL,38.7358299,-88.1003774
145725,Illinois Institute of Technology,Chicago,IL,41.8361641,-87.6264723
145813,Illinois State University,Normal,IL,40.5179938,-89.0084607
145831,Illinois Valley Community College,Oglesby,IL,41.3046573,-89.100924
145886,Institute for Clinical Social Work,Chicago,IL,41.897418,-87.634232
146205,John A Logan College,Carterville,IL,37.747828,-89.0889664
146278,John Wood Community College,Quincy,IL,39.9133608,-91.3349251
146296,Joliet Junior College,Joliet,IL,41.5003466,-88.1809635
146339,Judson University,Elgin,IL,42.0609055,-88.2915075
146348,Kankakee Community College,Kankakee,IL,41.0956514,-87.8522639
146366,Kaskaskia College,Centralia,IL,38.5618413,-89.192259
146418,Kishwaukee College,Malta,IL,41.9385879,-88.8820458
146427,Knox College,Galesburg,IL,40.9419283,-90.3722583
146454,Educators of Beauty College of Cosmetology-Peru,PERU,IL,40.69705,-89.607807
146472,College of Lake County,Grayslake,IL,42.3554202,-88.0123623
146481,Lake Forest College,Lake Forest,IL,42.2488266,-87.8291111
146490,Lake Forest Graduate School of Management,Lake Forest,IL,42.2433168,-87.8931903
146506,Lake Land College,Mattoon,IL,39.4160885,-88.3844277
146533,Lakeview College of Nursing,Danville,IL,40.1385087,-87.644094
146603,Lewis and Clark Community College,Godfrey,IL,38.9523885,-90.1951205
146612,Lewis University,Romeoville,IL,41.6027723,-88.0822138
146667,Lincoln Christian University,Lincoln,IL,40.132401,-89.378723
146685,Lincoln Land Community College,Springfield,IL,39.7200455,-89.611203
146700,Lincoln College of Technology-Melrose Park,Melrose Park,IL,39.401328,-87.705793
146719,Loyola University Chicago,Chicago,IL,41.9991492,-87.6573704
146728,Lutheran School of Theology at Chicago,Chicago,IL,41.941659,-87.659021
146755,Trinity College of Nursing & Health Sciences,Rock Island,IL,42.277732,-88.202768
146807,Steven Papageorge Hair Academy,Chicago,IL,41.880482,-87.647905
146816,Generations College,Chicago,IL,41.861472,-87.646884
146977,McCormick Theological Seminary,Chicago,IL,41.7963642,-87.5988996
147004,McHenry County College,Crystal Lake,IL,42.2609889,-88.3679603
147013,McKendree University,Lebanon,IL,38.6086808,-89.8152166
147031,Meadville Theological School of Lombard College,Chicago,IL,41.941732,-87.654778
147129,Methodist College,Peoria,IL,40.7802897,-89.6829655
147244,Millikin University,Decatur,IL,39.842988,-88.9742628
147341,Monmouth College,Monmouth,IL,40.9144918,-90.6383903
147369,Moody Bible Institute,Chicago,IL,41.8985255,-87.6335643
147378,Moraine Valley Community College,Palos Hills,IL,41.692682,-87.8386466
147396,Morrison Institute of Technology,Morrison,IL,41.781381,-90.002217
147411,Morton College,Cicero,IL,41.8244471,-87.7612766
147536,National Louis University,Chicago,IL,41.8799087,-87.6249024
147590,National University of Health Sciences,Lombard,IL,40.462562,-90.681743
147642,Cosmetology Concepts Niles,Niles,IL,42.031179,-87.811163
147660,North Central College,Naperville,IL,41.7743655,-88.1427492
147679,North Park University,Chicago,IL,41.9748748,-87.7053819
147697,Northern Baptist Theological Seminary,Lisle,IL,41.131281,-88.83569
147703,Northern Illinois University,Dekalb,IL,41.9370934,-88.7826784
147767,Northwestern University,Evanston,IL,42.0557157,-87.6752945
147776,Northeastern Illinois University,Chicago,IL,41.9802689,-87.7184851
147800,Oakton Community College,Des Plaines,IL,42.0621465,-87.8805945
147819,Oehrlein School of Cosmetology,East Peoria,IL,40.6658272,-89.5571426
147828,Olivet Nazarene University,Bourbonnais,IL,41.155315,-87.8744887
147916,Parkland College,Champaign,IL,40.1336555,-88.2908781
148007,Prairie State College,Chicago Heights,IL,41.5242646,-87.6381833
148016,Principia College,Elsah,IL,38.9478261,-90.3498362
148098,Professional's Choice Hair Design Academy,Joliet,IL,41.539634,-88.072501
148131,Quincy University,Quincy,IL,39.9401444,-91.3854328
148256,Rend Lake College,Ina,IL,38.1296923,-88.9205262
148292,Richland Community College,Decatur,IL,39.8849355,-88.8933499
148380,Rock Valley College,Rockford,IL,42.3076052,-88.99464
148405,Rockford University,Rockford,IL,42.2683388,-89.0186734
148487,Roosevelt University,Chicago,IL,41.8761348,-87.6251817
148496,Dominican University,River Forest,IL,41.9030415,-87.8226405
148511,Rush University,Chicago,IL,41.8736438,-87.6694981
148575,Saint Francis Medical Center College of Nursing,Peoria,IL,40.68009,-89.609644
148584,University of St Francis,Joliet,IL,41.5339312,-88.0973513
148593,St. John's College-Department of Nursing,Springfield,IL,39.858529,-89.616956
148627,Saint Xavier University,Chicago,IL,41.7079241,-87.7146312
148654,University of Illinois Springfield,Springfield,IL,39.7298743,-89.6183313
148672,Sauk Valley Community College,Dixon,IL,41.8175151,-89.5974293
148821,Shawnee Community College,Ullin,IL,37.2685108,-89.0352123
148876,St. Augustine College,Chicago,IL,41.9723506,-87.6633645
148885,University of Saint Mary of the Lake,Mundelein,IL,42.2801193,-87.9925164
148937,Southeastern Illinois College,Harrisburg,IL,37.7416695,-88.5272466
148955,National Latino Education Institute,Chicago,IL,41.897418,-87.634232
148982,Spertus College,Chicago,IL,41.861472,-87.646884
148991,Spoon River College,Canton,IL,40.5262988,-90.0734354
149028,Saint Anthony College of Nursing,Rockford,IL,42.27113,-89.094
149204,Educators of Beauty College of Cosmetology-Sterling,Sterling,IL,38.124762,-89.702135
149222,Southern Illinois University-Carbondale,Carbondale,IL,37.7083423,-89.2275556
149231,Southern Illinois University-Edwardsville,Edwardsville,IL,38.7941616,-90.0002789
149310,Taylor Business Institute,Chicago,IL,41.869709,-87.637801
149329,Telshe Yeshiva-Chicago,Chicago,IL,41.9754561,-87.7174883
149365,South Suburban College,South Holland,IL,41.6054978,-87.6197607
149505,Trinity Christian College,Palos Heights,IL,41.6689319,-87.7834032
149514,Trinity International University-Illinois,Deerfield,IL,42.1952955,-87.8791036
149532,Triton College,River Grove,IL,41.9145202,-87.8411921
149550,University of Spa & Cosmetology Arts,Springfield,IL,39.736367,-89.616179
149639,VanderCook College of Music,Chicago,IL,41.8367619,-87.6291654
149727,Waubonsee Community College,Sugar Grove,IL,41.7949312,-88.4580921
149763,Oak Point University,Oak Brook,IL,41.893293,-87.973027
149772,Western Illinois University,Macomb,IL,40.4771468,-90.6862024
149781,Wheaton College,Wheaton,IL,41.8696374,-88.0975552
149842,William Rainey Harper College,Palatine,IL,42.0805968,-88.0719246
150066,Anderson University,Anderson,IN,40.114554,-85.660719
150136,Ball State University,Muncie,IN,40.2097235,-85.4111168
150145,Bethel University,Mishawaka,IN,41.6763764,-86.1933297
150163,Butler University,Indianapolis,IN,39.8407191,-86.1737494
150172,Calumet College of Saint Joseph,Whiting,IN,41.6711327,-87.4942673
150215,Christian Theological Seminary,Indianapolis,IN,39.8330974,-86.1780437
150251,College of Court Reporting Inc,Valparaiso,IN,41.4688,-87.05373
150288,Concordia Theological Seminary,Fort Wayne,IN,41.1386861,-85.110965
150303,Tricoci University of Beauty Culture-Highland,Highland,IN,41.55365,-87.45198
150400,DePauw University,Greencastle,IN,39.6397676,-86.861676
150428,Don Roberts School of Hair Design,Schererville,IN,41.47892,-87.45476
150455,Earlham College,Richmond,IN,39.8204275,-84.9132312
150534,University of Evansville,Evansville,IN,37.9735131,-87.5322977
150604,Franklin College,Franklin,IN,39.4766065,-86.0372577
